City_ID,City,Cloudiness,Country,Date,Humidity,Lat,Lng,Max Temp,Wind Speed
0,busselton,0,AU,1571081412,64,-33.64,115.35,278.15,4.466
1,pisco,42,PE,1571081412,30,-13.71,-76.2,295.15,7.2
2,sesimbra,20,PT,1571081412,63,38.45,-9.1,289.82,2.1
3,timizart,23,DZ,1571081412,74,36.8,4.25,297.5,5.962
4,butaritari,100,KI,1571081412,62,3.07,172.79,302.5,3.084
5,ponta do sol,0,BR,1571081412,30,-20.63,-46.0,304.1,2.231
6,aljezur,41,PT,1571081412,75,37.31,-8.8,290.93,3.13
7,hilo,90,US,1571081412,88,19.71,-155.08,297.15,2.6
8,alta floresta,37,BR,1571081412,66,-9.87,-56.08,302.15,1.5
9,saldanha,32,PT,1571081412,66,41.42,-6.55,283.4,4.989
10,hermanus,50,ZA,1571081412,71,-34.42,19.24,292.04,3.13
11,longyearbyen,75,NO,1571081412,85,78.22,15.63,266.15,1.5
12,mount gambier,90,AU,1571081412,100,-37.83,140.78,282.15,1.5
13,burley,1,US,1571081412,19,42.54,-113.79,289.15,5.1
14,banyuwangi,99,ID,1571081412,81,-8.21,114.37,298.3,7.472
15,kruisfontein,0,ZA,1571081412,77,-34.0,24.73,288.9,8.966
16,ushuaia,94,AR,1571081412,61,-54.81,-68.31,282.15,13.9
17,houma,74,CN,1571081412,64,35.63,111.36,280.5,3.078
18,upernavik,99,GL,1571081412,54,72.79,-56.15,268.5,5.915
19,boguchany,100,RU,1571081412,91,58.38,97.46,275.0,1.909
20,tignere,91,CM,1571081412,89,7.37,12.65,294.6,1.002
21,laguna,90,BZ,1571081412,94,16.17,-88.94,299.15,1.466
22,mingshui,1,CN,1571081412,76,22.81,109.89,294.3,3.82
23,westport,1,US,1571081412,68,41.14,-73.36,296.15,3.6
24,roblin,97,CA,1571081412,89,51.23,-101.35,274.5,2.238
25,bredasdorp,41,ZA,1571081412,63,-34.53,20.04,292.04,7.2
26,arecibo,1,PR,1571081412,70,18.47,-66.72,304.15,3.6
27,fort saint james,75,CA,1571081412,83,54.43,-124.25,275.2,1.853
28,namibe,99,AO,1571081412,85,-15.19,12.15,294.5,3.405
29,albany,40,US,1571081412,40,42.65,-73.75,294.82,3.6
30,mataura,91,NZ,1571081412,92,-46.19,168.86,282.59,0.89
31,salalah,20,OM,1571081412,74,17.01,54.1,301.15,3.6
32,cape town,75,ZA,1571081412,77,-33.93,18.42,290.93,2.6
33,punta arenas,1,CL,1571081412,33,-53.16,-70.91,287.15,7.7
34,atuona,0,PF,1571081412,75,-9.8,-139.03,299.6,7.811
35,sao filipe,11,CV,1571081412,79,14.9,-24.5,299.0,8.93
36,dikson,54,RU,1571081412,94,73.51,80.55,271.5,6.659
37,rikitea,0,PF,1571081412,82,-23.12,-134.97,295.8,4.326
38,mocuba,40,MZ,1571081412,79,-16.84,36.99,295.8,2.871
39,klaksvik,44,FO,1571081412,81,62.23,-6.59,281.15,5.7
40,tuktoyaktuk,75,CA,1571081412,85,69.44,-133.03,269.15,5.1
41,cayenne,8,GF,1571081412,62,4.94,-52.33,304.15,5.1
42,qaanaaq,100,GL,1571081412,68,77.48,-69.36,266.5,9.166
43,iqaluit,20,CA,1571081412,74,63.75,-68.52,272.15,1.5
44,severo-kurilsk,97,RU,1571081412,89,50.68,156.12,274.7,4.411
45,vaini,69,IN,1571081412,91,15.34,74.49,295.3,2.404
46,isangel,40,VU,1571081412,100,-19.55,169.27,293.15,2.6
47,chuy,100,UY,1571081412,67,-33.69,-53.46,285.2,6.3
48,tilichiki,0,RU,1571081412,89,60.47,166.1,269.0,1.203
49,saint-philippe,90,CA,1571081412,54,45.36,-73.48,286.48,4.6
50,leningradskiy,83,RU,1571081412,71,69.38,178.42,272.5,5.582
51,arraial do cabo,0,BR,1571081412,65,-22.97,-42.02,303.15,5.7
52,joshimath,1,IN,1571081412,72,30.57,79.57,279.5,1.562
53,luderitz,33,NA,1571081412,72,-26.65,15.16,290.15,8.2
54,touros,20,BR,1571081412,65,-5.2,-35.46,301.15,6.2
55,kashiwazaki,70,JP,1571081412,96,37.37,138.57,286.48,7.631
56,amahai,100,ID,1571081412,86,-3.31,129.0,301.48,1.991
57,norman wells,75,CA,1571081412,92,65.28,-126.83,271.15,2.1
58,ilulissat,20,GL,1571081412,57,69.22,-51.1,266.15,4.1
59,puerto ayora,75,EC,1571081412,57,-0.74,-90.35,298.15,9.8
60,fukue,75,JP,1571081412,64,35.03,136.69,293.15,10.8
61,mar del plata,0,AR,1571081412,41,-46.43,-67.52,284.1,6.025
62,dingle,98,PH,1571081412,92,11.0,122.67,296.5,3.447
63,kozhva,100,RU,1571081412,95,65.11,57.05,276.2,3.26
64,tessalit,44,ML,1571081412,14,20.2,1.01,310.1,7.073
65,half moon bay,1,US,1571081412,76,37.46,-122.43,295.93,4.1
66,gashua,7,NG,1571081412,15,12.87,11.04,307.8,3.518
67,jamestown,0,AU,1571081412,91,-33.21,138.6,280.8,1.998
68,bang len,20,TH,1571081412,88,14.02,100.17,300.37,2.6
69,victoria,75,BN,1571081412,88,5.28,115.24,299.82,3.1
70,pevek,61,RU,1571081412,71,69.7,170.27,273.5,8.591
71,ribeira grande,20,PT,1571081412,56,38.52,-28.7,294.15,6.7
72,ostrovnoy,88,RU,1571081412,78,68.05,39.51,273.6,2.416
73,zhezkazgan,100,KZ,1571081412,77,47.8,67.71,283.5,8.551
74,varna,90,BG,1571081412,87,43.22,27.9,288.15,3.019
75,aklavik,20,CA,1571081412,100,68.22,-135.01,268.15,6.2
76,kendari,0,ID,1571081412,91,-3.99,122.52,294.6,0.118
77,faanui,21,PF,1571081412,80,-16.48,-151.75,298.2,6.354
78,lexington,1,US,1571081412,53,38.05,-84.5,294.82,3.6
79,hobart,75,AU,1571081412,81,-42.88,147.33,283.15,5.1
80,bethel,1,US,1571081412,86,60.79,-161.76,272.15,2.6
81,port lincoln,0,AU,1571081412,84,-34.72,135.86,283.2,1.261
82,barrow,90,AR,1571081412,48,-38.31,-60.23,284.7,6.39
83,hithadhoo,100,MV,1571081412,85,-0.6,73.08,299.8,6.811
84,zomin,30,UZ,1571081412,53,39.96,68.4,283.5,0.84
85,new norfolk,75,AU,1571081412,81,-42.78,147.06,283.15,5.1
86,la palma,78,CO,1571081412,65,5.36,-74.39,300.0,1.582
87,thompson,90,CA,1571081412,93,55.74,-97.86,275.15,3.1
88,elat,100,CM,1571081412,98,2.91,11.16,294.0,2.671
89,north myrtle beach,40,US,1571081412,65,33.83,-78.68,300.93,3.1
90,port hedland,0,AU,1571081412,93,-20.31,118.58,292.15,3.6
91,avarua,75,CK,1571081412,83,-21.21,-159.78,296.15,3.6
92,acacoyagua,75,MX,1571081412,79,15.34,-92.68,303.15,1.0
93,lasa,68,CY,1571081412,43,34.92,32.53,299.15,3.1
94,geraldton,75,CA,1571081412,70,49.72,-86.95,279.15,4.6
95,bluff,0,AU,1571081412,83,-23.58,149.07,292.2,1.632
96,kapaa,20,US,1571081412,69,22.08,-159.32,301.15,6.7
97,kaitangata,70,NZ,1571081412,82,-46.28,169.85,283.71,5.36
98,la asuncion,100,AR,1571081412,95,-26.05,-65.39,280.0,2.085
99,quatre cocos,75,MU,1571081412,83,-20.21,57.76,295.93,1.5
100,dunedin,100,NZ,1571081412,88,-45.87,170.5,283.71,12.07
101,grandview,1,US,1571081412,43,38.89,-94.53,296.48,5.1
102,fort-shevchenko,0,KZ,1571081412,66,44.51,50.26,288.2,2.292
103,kununurra,72,AU,1571081412,83,-15.77,128.74,295.15,2.426
104,hovezi,0,CZ,1571081412,93,49.3,18.06,289.15,0.5
105,provideniya,100,RU,1571081412,93,64.42,-173.23,272.7,3.053
106,nikolskoye,75,RU,1571081412,81,59.7,30.79,279.15,5.0
107,yellowknife,75,CA,1571081412,57,62.45,-114.38,273.15,1.5
108,jati,0,PK,1571081412,43,24.35,68.27,302.8,3.576
109,port elizabeth,1,US,1571081412,35,39.31,-74.98,297.15,6.7
110,mahebourg,75,MU,1571081412,83,-20.41,57.7,295.93,1.5
111,smithers,90,CA,1571081412,78,54.78,-127.17,273.15,3.6
112,sitka,0,US,1571081412,39,37.17,-99.65,297.04,4.47
113,neftcala,0,AZ,1571081412,74,39.37,49.25,294.0,6.577
114,mayo,75,CA,1571081412,78,63.59,-135.9,264.15,4.6
115,sorland,40,NO,1571081412,93,67.67,12.69,278.15,2.1
116,sao felix do xingu,43,BR,1571081412,33,-6.64,-51.99,308.9,2.407
117,galesong,12,ID,1571081412,73,-5.32,119.37,294.15,0.5
118,valparaiso,1,US,1571081412,46,41.47,-87.06,285.93,4.1
119,moron,8,HT,1571081412,72,18.56,-74.26,301.5,0.304
120,swinoujscie,56,PL,1571081412,82,53.91,14.25,286.15,3.1
121,soe,97,EE,1571081412,93,57.91,26.05,280.15,4.6
122,lompoc,1,US,1571081412,59,34.64,-120.46,294.82,3.1
123,castro,0,CL,1571081412,23,-42.48,-73.76,291.15,5.7
124,bubaque,2,GW,1571081412,75,11.28,-15.83,301.4,6.097
125,tagusao,95,PH,1571081412,85,9.19,117.81,298.0,0.421
126,torbay,90,CA,1571081412,75,47.66,-52.73,279.82,7.2
127,garowe,15,SO,1571081412,77,8.41,48.48,298.4,10.368
128,huty,33,UA,1571081412,69,50.13,35.35,287.8,3.531
129,north bend,1,US,1571081412,72,43.41,-124.22,289.26,2.6
130,khatanga,97,RU,1571081412,96,71.98,102.47,271.1,4.632
131,hami,0,CN,1571081412,27,42.84,93.51,285.1,2.82
132,east london,0,ZA,1571081412,93,-33.02,27.91,291.15,2.1
133,mwingi,20,KE,1571081412,70,-0.93,38.07,294.9,3.035
134,ures,0,MX,1571081412,50,30.73,-112.95,304.82,4.47
135,guanhaes,30,BR,1571081412,32,-18.77,-42.93,302.2,3.779
136,tasiilaq,75,GL,1571081412,64,65.61,-37.64,275.15,8.2
137,tommot,100,RU,1571081412,96,58.97,126.27,269.1,3.792
138,kavieng,97,PG,1571081412,73,-2.57,150.8,301.3,3.553
139,cabo san lucas,90,MX,1571081412,83,22.89,-109.91,303.15,5.1
140,kulebaki,100,RU,1571081412,94,55.41,42.53,282.0,4.066
141,aswan,66,EG,1571081412,23,24.09,32.9,308.15,1.5
142,tromso,20,NO,1571081412,80,69.65,18.96,272.15,2.6
143,dolgorukovo,3,RU,1571081412,73,52.32,38.35,288.2,6.026
144,pontes e lacerda,40,BR,1571081412,33,-15.23,-59.33,309.0,0.553
145,lagoa,20,PT,1571081412,68,37.14,-8.45,292.15,4.1
146,champerico,75,MX,1571081412,54,16.38,-93.6,302.15,1.5
147,cherskiy,98,RU,1571081412,96,68.75,161.3,268.4,4.079
148,hasaki,75,JP,1571081412,93,35.73,140.83,290.37,0.5
149,carauari,49,BR,1571081412,45,-4.88,-66.9,307.3,0.414
150,brae,86,GB,1571081412,87,60.4,-1.35,283.15,4.1
151,carnarvon,32,ZA,1571081412,14,-30.97,22.13,293.4,8.274
152,juneau,75,US,1571081412,65,58.3,-134.42,277.59,4.075
153,wagar,81,US,1571081412,78,31.44,-87.99,296.48,0.45
154,husavik,79,CA,1571081412,78,50.56,-96.99,278.71,2.24
155,ambovombe,0,MG,1571081412,81,-25.18,46.09,295.7,7.513
156,san patricio,100,PY,1571081412,90,-26.98,-56.83,296.9,2.541
157,constitucion,90,MX,1571081412,35,23.99,-104.67,297.59,1.0
158,tiznit,36,MA,1571081412,70,29.7,-9.73,291.0,3.019
159,vila velha,6,BR,1571081412,58,-3.71,-38.6,302.15,6.2
160,eyl,0,SO,1571081412,81,7.98,49.82,300.3,5.267
161,ninghai,81,CN,1571081412,72,29.29,121.42,291.15,3.0
162,novikovo,34,RU,1571081412,70,51.15,37.89,287.5,4.377
163,ixtapa,20,MX,1571081412,70,20.71,-105.21,304.82,3.1
164,katsuura,75,JP,1571081412,63,33.93,134.5,292.15,6.7
165,fayaoue,64,NC,1571081412,74,-20.65,166.53,295.1,5.473
166,tuy hoa,100,VN,1571081412,79,13.08,109.3,300.0,4.165
167,saskylakh,94,RU,1571081412,93,71.97,114.09,267.6,5.145
168,vostok,0,RU,1571081412,64,46.45,135.83,267.5,2.725
169,arbuzynka,42,UA,1571081412,73,47.91,31.32,287.1,3.558
170,lebu,20,ET,1571081412,47,8.96,38.73,288.15,6.2
171,pangnirtung,75,CA,1571081412,74,66.15,-65.72,273.15,1.5
172,kodiak,1,US,1571081412,42,39.95,-94.76,295.15,4.6
173,teguise,20,ES,1571081412,78,29.06,-13.56,295.15,5.7
174,dongying,0,CN,1571081412,34,37.43,118.67,282.0,3.057
175,huarmey,67,PE,1571081412,37,-10.07,-78.15,300.1,4.458
176,farmington,1,US,1571081412,15,36.73,-108.21,293.15,4.508
177,tocopilla,0,CL,1571081412,14,-22.09,-70.2,295.4,5.794
178,vila franca do campo,20,PT,1571081412,63,37.72,-25.43,294.82,3.6
179,khokhlovo,27,RU,1571081412,71,50.71,36.69,287.3,3.81
180,ancud,0,CL,1571081412,23,-41.87,-73.83,291.15,5.7
181,santa catarina de tepehuanes,96,MX,1571081412,51,25.34,-105.72,293.9,2.43
182,basco,1,US,1571081412,44,40.33,-91.2,291.48,4.1
183,jumla,25,NP,1571081412,95,29.28,82.18,279.0,0.687
184,leh,15,IN,1571081412,32,34.16,77.58,274.7,1.149
185,ugoofaaru,0,MV,1571081412,67,5.67,73.0,301.6,0.349
186,louga,75,SN,1571081412,66,15.62,-16.22,304.15,2.1
187,nantucket,90,US,1571081412,93,41.28,-70.1,290.37,4.6
188,dalbeattie,82,GB,1571081412,89,54.93,-3.83,284.26,1.281
189,tiruchchendur,99,IN,1571081412,72,8.48,78.12,301.9,1.527
190,sunnyside,64,CA,1571081412,70,47.86,-53.92,281.6,4.748
191,georgetown,40,GY,1571081412,55,6.8,-58.16,304.15,5.1
192,jambi,65,ID,1571081412,90,-1.6,103.62,296.8,0.93
193,lima,40,PE,1571081412,64,-12.06,-77.04,294.15,6.7
194,poronaysk,0,RU,1571081412,57,49.22,143.1,274.8,5.85
195,tuatapere,59,NZ,1571081412,92,-46.13,167.69,282.59,0.89
196,san carlos de bariloche,40,AR,1571081412,36,-41.13,-71.31,281.15,7.2
197,plettenberg bay,0,ZA,1571081412,74,-34.05,23.37,289.8,3.82
198,port alfred,0,ZA,1571081412,88,-33.59,26.89,290.93,2.24
199,rudnichnyy,100,RU,1571081412,86,59.7,60.29,279.1,3.103
200,gizo,75,IL,1571081412,88,31.8,34.94,299.82,2.6
201,shelburne,90,CA,1571081412,61,44.08,-80.2,285.15,5.1
202,port blair,100,IN,1571081412,76,11.67,92.75,302.2,5.806
203,jasper,75,US,1571081412,43,33.83,-87.28,297.04,0.696
204,san quintin,98,PH,1571081412,87,17.54,120.52,294.7,2.336
205,sioux lookout,90,CA,1571081412,93,50.1,-91.92,277.15,2.6
206,manggar,95,ID,1571081412,80,-2.88,108.27,300.1,3.53
207,baykit,100,RU,1571081412,98,61.68,96.39,274.2,1.78
208,peniche,20,PT,1571081412,63,39.36,-9.38,289.15,2.1
209,viedma,52,AR,1571081412,42,-40.81,-62.99,285.0,6.357
210,komsomolskiy,100,RU,1571081412,91,67.55,63.78,273.5,3.218
211,santa isabel do rio negro,61,BR,1571081412,36,-0.41,-65.02,310.7,0.718
212,ulyanovsk,100,RU,1571081412,77,54.31,48.36,282.5,6.619
213,codrington,75,AU,1571081412,93,-28.95,153.24,289.15,1.0
214,stolin,0,BY,1571081412,77,51.89,26.85,287.1,3.521
215,lons-le-saunier,46,FR,1571081412,72,46.67,5.56,292.59,3.6
216,la ronge,90,CA,1571081412,56,55.1,-105.3,279.15,3.6
217,taoudenni,0,ML,1571081412,18,22.68,-3.98,309.7,4.699
218,esperance,75,AU,1571081412,100,-33.86,121.89,281.15,2.6
219,fort nelson,75,CA,1571081412,86,58.81,-122.69,274.15,1.5
220,gold coast,37,AU,1571081412,93,-28.0,153.41,293.71,5.831
221,puerto ayacucho,20,CO,1571081412,46,5.66,-67.63,307.15,2.1
222,lithakia,0,GR,1571081412,88,37.72,20.83,295.15,3.362
223,xining,58,CN,1571081412,66,36.62,101.77,278.1,3.361
224,paso de los toros,90,UY,1571081412,71,-32.81,-56.52,283.15,10.3
225,idah,74,NG,1571081412,78,7.11,6.73,300.2,1.56
226,shaunavon,100,CA,1571081412,77,49.65,-108.41,274.5,9.8
227,kloulklubed,90,PW,1571081412,94,7.04,134.26,297.15,3.389
228,byron bay,40,AU,1571081412,100,-28.65,153.62,292.04,1.0
229,muncar,100,ID,1571081412,82,-8.43,114.34,298.4,3.288
230,narsaq,5,GL,1571081412,47,60.91,-46.05,276.15,1.5
231,payson,1,US,1571081412,23,40.04,-111.73,292.15,2.1
232,grand-santi,18,GF,1571081412,31,4.27,-54.38,308.9,1.931
233,beringovskiy,100,RU,1571081412,94,63.05,179.32,277.1,14.683
234,clyde river,90,CA,1571081412,64,70.47,-68.59,275.15,6.7
235,puerto leguizamo,55,CO,1571081412,56,-0.19,-74.78,304.9,1.035
236,havoysund,40,NO,1571081412,80,71.0,24.66,274.15,1.0
237,berestechko,0,UA,1571081412,91,50.36,25.12,285.37,2.623
238,longonjo,71,AO,1571081412,64,-12.91,15.25,293.3,0.713
239,fairbanks,1,US,1571081412,73,64.84,-147.72,268.15,3.1
240,dombas,40,NO,1571081412,95,62.07,9.12,266.8,0.227
241,adrar,31,DZ,1571081412,23,27.87,-0.29,304.15,3.1
242,nanortalik,0,GL,1571081412,69,60.14,-45.24,275.9,5.657
243,imeni zhelyabova,100,RU,1571081412,95,58.95,36.6,279.0,3.658
244,chokurdakh,100,RU,1571081412,95,70.62,147.9,266.6,4.326
245,samarai,20,PG,1571081412,89,-10.62,150.67,295.5,2.379
246,tual,92,ID,1571081412,82,-5.67,132.75,299.3,2.939
247,altay,0,CN,1571081412,38,47.83,88.13,277.1,2.267
248,indian head,100,CA,1571081412,74,50.53,-103.67,279.26,1.897
249,nicoya,75,CR,1571081412,83,10.15,-85.45,299.15,2.6
250,vardo,1,US,1571081412,24,39.62,-77.74,297.04,5.7
251,moss vale,75,AU,1571081412,87,-34.55,150.37,284.82,1.5
252,raymondville,1,US,1571081412,27,37.34,-91.83,296.48,3.1
253,bambous virieux,75,MU,1571081412,83,-20.34,57.76,295.93,1.5
254,buraydah,40,SA,1571081412,28,26.33,43.97,303.15,4.1
255,dudinka,100,RU,1571081412,98,69.41,86.18,274.4,2.577
256,playas,14,EC,1571081412,70,-2.64,-80.39,296.7,6.362
257,biak,68,ID,1571081412,80,-0.91,122.88,300.0,3.96
258,cururupu,73,BR,1571081412,48,-1.82,-44.87,305.6,3.141
259,yunhe,94,CN,1571081412,98,28.12,119.57,286.7,1.193
260,kalmunai,19,LK,1571081412,75,7.42,81.82,302.0,3.96
261,mount isa,0,AU,1571081412,48,-20.73,139.49,292.15,4.978
262,khani,0,GE,1571081412,100,41.96,42.96,285.15,2.1
263,tombouctou,94,ML,1571081412,16,16.77,-3.01,312.5,3.386
264,mandal,0,MN,1571081412,33,48.82,106.5,271.4,1.968
265,kotaparh,100,IN,1571081412,92,19.15,82.35,294.5,1.967
266,hays,1,US,1571081412,36,38.88,-99.33,299.15,9.3
267,paamiut,0,GL,1571081412,53,61.99,-49.67,274.9,3.741
268,boyuibe,90,BO,1571081412,88,-20.43,-63.28,293.15,2.6
269,grindavik,90,IS,1571081412,81,63.84,-22.43,281.15,13.4
270,nouakchott,100,MR,1571081412,83,18.08,-15.98,300.15,3.6
271,atasu,100,KZ,1571081412,79,48.68,71.64,282.8,11.112
272,tiksi,97,RU,1571081412,89,71.64,128.87,264.1,1.929
273,muisne,40,EC,1571081412,74,0.61,-80.02,302.15,5.1
274,ornskoldsvik,0,SE,1571081412,100,63.29,18.72,273.15,1.0
275,inverness,20,GB,1571081412,100,57.48,-4.23,284.15,1.711
276,wagrowiec,54,PL,1571081412,93,52.81,17.2,290.93,1.5
277,urgut,0,UZ,1571081412,76,39.41,67.25,282.15,1.0
278,ponta delgada,20,PT,1571081412,63,37.73,-25.67,294.82,3.6
279,paita,22,PE,1571081412,100,-5.09,-81.11,290.15,7.7
280,maragogi,0,BR,1571081412,76,-9.01,-35.22,298.9,6.232
281,vigrestad,75,NO,1571081412,93,58.57,5.7,284.26,2.1
282,abu dhabi,0,AE,1571081412,70,24.47,54.37,303.15,2.6
283,hammerfest,75,NO,1571081412,79,70.66,23.68,275.15,1.0
284,tartagal,90,AR,1571081412,57,-22.52,-63.8,299.15,4.1
285,bayir,0,TR,1571081412,88,37.27,28.22,292.15,2.1
286,blythe,1,US,1571081412,42,33.61,-114.59,302.04,4.6
287,karpathos,3,GR,1571081412,83,35.51,27.21,294.15,6.2
288,regen,16,DE,1571081412,87,48.97,13.13,288.71,0.836
289,el bagre,100,CO,1571081412,66,7.6,-74.8,301.3,1.099
290,atyrau,44,KZ,1571081412,69,47.1,51.92,289.1,2.008
291,alice springs,61,AU,1571081412,21,-23.7,133.88,295.15,3.6
292,mankapur,0,IN,1571081412,64,28.32,79.86,295.2,2.026
293,lujan,0,AR,1571081412,41,-46.57,-67.67,284.1,6.025
294,praia,0,BR,1571081412,19,-20.25,-43.81,306.15,7.7
295,pouebo,0,NC,1571081412,83,-20.4,164.57,288.4,1.701
296,maceio,40,BR,1571081412,69,-9.67,-35.74,300.15,6.7
297,charters towers,89,AU,1571081412,87,-20.07,146.27,290.3,2.405
298,jinchang,100,CN,1571081412,70,38.52,102.19,276.1,1.92
299,batemans bay,10,AU,1571081412,93,-35.71,150.18,283.15,0.45
300,gimli,79,CA,1571081412,78,50.63,-96.99,278.71,2.24
301,saint-augustin,90,CA,1571081412,87,45.63,-73.98,286.15,1.5
302,mindszent,89,HU,1571081412,93,46.52,20.19,286.48,2.845
303,hit,33,IQ,1571081412,8,33.64,42.83,299.7,3.935
304,horasan,0,TR,1571081412,17,40.04,42.16,284.0,2.469
305,gidole,94,ET,1571081412,73,5.65,37.37,293.9,1.351
306,flinders,75,AU,1571081412,87,-34.58,150.85,285.93,1.5
307,fortuna,20,US,1571081412,51,40.6,-124.16,290.93,1.065
308,kimbe,99,PG,1571081412,93,-5.56,150.15,295.7,1.28
309,malindi,20,KE,1571081412,88,-3.22,40.12,299.15,4.1
310,mehamn,20,NO,1571081412,92,71.03,27.85,274.15,4.1
311,nesna,40,NO,1571081412,69,66.2,13.02,276.15,3.1
312,sao bernardo,46,BR,1571081412,26,-3.36,-42.42,310.0,0.24
313,semnan,71,IR,1571081412,18,35.58,53.39,290.15,1.45
314,kamenka,64,MD,1571081412,54,48.03,28.7,290.1,1.719
315,marzuq,32,YE,1571081412,45,14.4,46.47,297.3,1.75
316,ellsworth,1,US,1571081412,41,38.73,-98.23,299.15,10.8
317,storm lake,1,US,1571081412,41,42.64,-95.21,288.15,5.1
318,suntar,98,RU,1571081412,86,62.16,117.65,271.5,3.4
319,zyryanka,100,RU,1571081412,93,65.73,150.89,265.7,11.767
320,devonport,0,AU,1571081412,99,-41.18,146.36,280.93,0.89
321,kysyl-syr,99,RU,1571081412,95,63.9,122.77,268.6,2.8
322,ahipara,100,NZ,1571081412,100,-35.17,173.16,288.15,2.462
323,talnakh,100,RU,1571081412,98,69.49,88.39,273.1,3.72
324,airai,7,TL,1571081412,28,-8.93,125.41,289.5,1.97
325,vikhorevka,89,RU,1571081412,73,56.12,101.17,273.15,2.0
326,lamu,86,CN,1571081412,76,35.77,102.37,276.5,2.639
327,tancheng,24,CN,1571081412,55,33.44,116.55,283.7,4.054
328,nabire,99,ID,1571081412,98,-3.36,135.5,294.6,1.177
329,makakilo city,40,US,1571081412,58,21.35,-158.09,302.15,5.7
330,matara,20,BI,1571081412,94,-3.48,29.48,295.15,1.779
331,lavrentiya,100,RU,1571081412,81,65.58,-170.99,276.0,7.261
332,maksatikha,100,RU,1571081412,98,57.8,35.88,280.7,2.472
333,portland,40,US,1571081412,67,43.66,-70.25,291.48,2.6
334,sao joao da barra,0,BR,1571081412,58,-21.64,-41.05,301.15,11.3
335,naze,75,NG,1571081412,94,5.43,7.07,298.15,1.5
336,dicabisagan,65,PH,1571081412,87,17.08,122.42,297.2,3.9
337,verkhnyaya inta,100,RU,1571081412,98,65.99,60.32,275.5,2.55
338,mbour,40,SN,1571081412,83,14.41,-16.97,301.15,2.6
339,williston,90,US,1571081412,45,48.15,-103.62,283.15,6.2
340,haines junction,40,CA,1571081412,75,60.75,-137.51,266.2,2.827
341,det udom,89,TH,1571081412,83,14.9,105.08,298.15,3.6
342,brewster,90,US,1571081412,88,41.76,-70.08,290.93,2.6
343,fujin,0,CN,1571081412,51,47.24,132.03,272.3,4.734
344,uruzgan,8,AF,1571081412,49,32.93,66.63,277.8,0.252
345,tamandare,27,BR,1571081412,39,-8.28,-70.75,306.8,1.086
346,teahupoo,75,PF,1571081412,61,-17.83,-149.27,300.15,3.1
347,rorvik,20,NO,1571081412,93,64.86,11.24,276.15,2.1
348,cidreira,100,BR,1571081412,81,-30.17,-50.22,289.7,10.073
349,rio gallegos,0,AR,1571081412,22,-51.62,-69.22,292.15,5.7
350,brownsville,75,US,1571081412,55,25.91,-97.49,307.15,3.6
351,qasigiannguit,20,GL,1571081412,57,68.82,-51.19,266.15,4.1
352,chicama,40,PE,1571081412,72,-7.84,-79.15,292.15,4.6
353,porrentruy,2,CH,1571081412,77,47.42,7.08,291.48,1.5
354,ayagoz,59,KZ,1571081412,40,47.96,80.43,285.8,5.172
355,tutoia,20,BR,1571081412,74,-2.76,-42.27,302.15,9.3
356,salinas,1,US,1571081412,47,36.67,-121.66,294.26,1.322
357,kuala terengganu,75,MY,1571081412,94,5.33,103.14,298.15,1.0
358,nioro,70,GM,1571081412,71,13.79,-15.05,302.3,2.914
359,jaguarao,100,BR,1571081412,70,-32.57,-53.38,285.8,6.946
360,aginskoye,97,RU,1571081412,36,51.11,114.54,275.6,8.005
361,matagami,40,NG,1571081412,88,9.67,8.4,293.15,2.6
362,bathsheba,20,BB,1571081412,62,13.22,-59.52,303.15,8.2
363,saint-leu,75,RE,1571081412,73,-21.15,55.28,296.15,2.1
364,brookings,1,US,1571081412,57,44.31,-96.8,287.15,5.1
365,kailua,75,US,1571081412,69,21.39,-157.74,302.15,6.2
366,batagay-alyta,100,RU,1571081412,71,67.8,130.41,263.0,0.966
367,trelew,0,AR,1571081412,35,-43.25,-65.31,284.9,5.859
368,tambun,75,ID,1571081412,83,-6.26,107.07,299.82,2.1
369,coolum beach,14,AU,1571081412,95,-26.53,153.09,291.48,1.359
370,svarstad,73,NO,1571081412,93,59.4,9.97,280.37,1.234
371,puerto madryn,9,AR,1571081412,32,-42.77,-65.04,285.4,4.523
372,san lorenzo,40,HN,1571081412,94,13.43,-87.45,299.15,2.1
373,san cristobal,99,HN,1571081412,75,14.68,-86.92,297.1,1.938
374,pahrump,1,US,1571081412,8,36.21,-115.98,298.15,1.5
375,sabya,20,SA,1571081412,74,17.15,42.62,304.15,1.5
376,rocha,100,UY,1571081412,66,-34.48,-54.34,283.7,6.99
377,karibib,93,NA,1571081412,33,-21.94,15.86,294.7,6.179
378,nobeoka,0,JP,1571081412,91,32.66,131.66,285.9,1.905
379,muroto,19,JP,1571081412,84,33.37,134.14,288.9,2.387
380,yerbogachen,100,RU,1571081412,93,61.28,108.01,273.3,3.074
381,dali,65,CN,1571081412,66,34.79,109.94,283.0,10.347
382,los llanos de aridane,75,ES,1571081412,64,28.66,-17.92,295.15,4.1
383,minas de barroteran,76,MX,1571081412,45,27.63,-101.28,299.6,1.735
384,aranos,100,NA,1571081412,23,-24.14,19.11,300.9,3.945
385,balabac,53,PH,1571081412,77,7.99,117.06,300.3,2.021
386,broome,75,GB,1571081412,100,52.47,1.45,289.26,3.1
387,skibbereen,75,IE,1571081412,93,51.55,-9.27,285.15,1.5
388,guerrero negro,0,MX,1571081412,51,27.97,-114.04,296.3,6.152
389,mao,20,DO,1571081412,46,19.55,-71.08,306.15,3.6
390,seoul,75,KR,1571081412,93,37.57,126.98,283.15,1.0
391,rome,91,IT,1571081412,82,41.89,12.48,294.15,1.0
392,natal,20,BR,1571081412,65,-5.81,-35.21,302.15,6.2
393,tulle,98,FR,1571081412,77,45.27,1.77,290.15,8.7
394,morros,40,BR,1571081412,66,-2.87,-44.04,303.15,7.2
395,canandaigua,90,US,1571081412,81,42.88,-77.28,285.37,2.6
396,coquimbo,75,CL,1571081412,68,-29.95,-71.34,291.15,8.7
397,reconquista,100,AR,1571081412,89,-29.14,-59.64,284.5,7.504
398,matamoros,75,US,1571081412,55,25.87,-97.51,307.15,3.6
399,hokitika,100,NZ,1571081412,73,-42.72,170.96,283.5,7.17
400,fecamp,90,FR,1571081412,87,49.76,0.37,288.15,6.2
401,kamaishi,77,JP,1571081412,84,39.28,141.86,285.5,1.986
402,buta,97,CD,1571081412,78,2.79,24.73,296.8,0.443
403,svetlaya,0,RU,1571081412,39,46.54,138.33,277.0,4.284
404,kahului,40,US,1571081412,69,20.89,-156.47,300.15,5.1
405,saratoga springs,75,US,1571081412,42,43.08,-73.79,294.26,5.1
406,lazaro cardenas,90,MX,1571081412,68,28.39,-105.62,297.04,5.1
407,port victoria,3,AU,1571081412,90,-34.5,137.49,284.4,3.096
408,mossendjo,100,CG,1571081412,96,-2.95,12.72,294.9,1.242
409,souillac,89,FR,1571081412,93,45.6,-0.6,289.26,3.6
410,mae sot,81,MM,1571081412,92,16.71,98.57,292.4,1.456
411,chernyshevskiy,30,RU,1571081412,93,63.01,112.47,267.2,2.001
412,fontem,98,CM,1571081412,94,5.49,9.85,291.5,0.568
413,kurchum,7,KZ,1571081412,34,48.57,83.65,288.0,7.41
414,markova,13,RU,1571081412,68,52.21,104.21,271.15,1.0
415,coahuayana,70,MX,1571081412,72,18.62,-100.35,302.2,0.903
416,tezu,0,IN,1571081412,54,27.93,96.16,294.4,1.652
417,rawson,0,AR,1571081412,65,-43.3,-65.11,280.5,5.594
418,nyurba,73,RU,1571081412,93,63.29,118.35,266.4,2.907
419,collie,0,AU,1571081412,64,-33.36,116.15,278.15,0.752
420,varberg,94,SE,1571081412,81,57.11,12.25,282.15,1.5
421,christchurch,100,NZ,1571081412,93,-43.53,172.64,284.26,5.1
422,ayacucho,20,PE,1571081412,25,-13.16,-74.23,297.15,3.1
423,karratha,8,AU,1571081412,75,-20.74,116.85,296.3,6.849
424,kachug,52,RU,1571081412,62,53.96,105.89,271.7,0.863
425,san pedro,95,AR,1571081412,57,-33.68,-59.66,287.59,3.58
426,rudsar,1,IR,1571081412,88,37.14,50.29,290.15,2.1
427,aneho,20,TG,1571081412,88,6.23,1.6,300.15,5.1
428,dhidhdhoo,7,MV,1571081412,70,6.88,73.1,301.8,1.886
429,hobyo,10,SO,1571081412,75,5.35,48.53,300.5,4.303
430,liepaja,35,LV,1571081412,87,56.52,21.02,286.15,3.6
431,adre,31,TD,1571081412,61,13.47,22.2,297.9,2.631
432,ingham,97,AU,1571081412,96,-18.65,146.16,289.6,0.522
433,kiruna,0,SE,1571081412,100,67.86,20.23,261.15,2.6
434,taltal,52,CL,1571081412,61,-25.41,-70.49,289.5,3.517
435,rancho cucamonga,1,US,1571081412,49,34.1,-117.58,296.48,2.1
436,mahajanga,20,MG,1571081412,78,-15.72,46.32,300.15,2.6
437,russell,1,US,1571081412,31,38.9,-98.86,299.15,9.8
438,qaqortoq,5,GL,1571081412,47,60.72,-46.03,276.15,1.5
439,port hardy,90,CA,1571081412,76,50.7,-127.42,282.15,5.7
440,yurty,95,RU,1571081412,67,56.05,97.64,277.1,1.935
441,ossora,43,RU,1571081412,66,59.24,163.07,274.6,6.722
442,san rafael,100,AR,1571081412,91,-34.61,-68.33,276.2,3.256
443,srednekolymsk,100,RU,1571081412,93,67.46,153.71,268.1,8.988
444,bonavista,100,CA,1571081412,81,48.65,-53.11,279.26,2.68
445,shiyan,100,CN,1571081412,83,32.65,110.78,283.4,2.15
446,saint george,0,GR,1571081412,77,39.45,22.34,290.15,2.009
447,cobija,20,BR,1571081412,49,-11.02,-68.77,307.15,4.1
448,coihueco,75,CL,1571081412,68,-36.63,-71.83,291.15,8.7
449,adwa,98,ET,1571081412,43,14.16,38.9,292.2,5.749
450,ryazanovskiy,100,RU,1571081412,88,55.55,39.43,287.4,5.79
451,tarauaca,32,BR,1571081412,38,-8.16,-70.77,306.6,1.117
452,itarema,20,BR,1571081412,58,-2.92,-39.92,304.15,10.3
453,pauini,66,BR,1571081412,43,-7.71,-67.0,306.9,1.231
454,talara,29,PE,1571081412,100,-4.58,-81.27,290.15,7.7
455,okhotsk,71,RU,1571081412,60,59.36,143.24,264.1,7.711
456,tazovskiy,79,RU,1571081412,96,67.47,78.7,276.2,6.445
457,aykhal,0,RU,1571081412,87,65.95,111.51,261.7,2.253
458,bratsk,81,RU,1571081412,77,56.15,101.63,273.15,2.0
459,sao borja,100,BR,1571081412,94,-28.66,-56.0,288.9,8.552
460,wahiawa,75,US,1571081412,69,21.5,-158.02,302.15,6.2
461,kenora,90,CA,1571081412,80,49.76,-94.48,277.15,2.1
462,nisia floresta,20,BR,1571081412,65,-6.09,-35.21,302.15,6.2
463,butterworth,75,MY,1571081412,100,5.4,100.37,298.15,1.5
464,nizwa,10,OM,1571081412,39,22.93,57.53,298.6,1.501
465,bensonville,75,LR,1571081412,94,6.45,-10.61,299.15,1.882
466,boende,69,CD,1571081412,70,-0.28,20.88,299.2,0.538
467,deder,100,ET,1571081412,59,9.31,41.44,291.3,1.112
468,marawi,100,PH,1571081412,95,8.0,124.29,295.93,0.45
469,suba,100,CN,1571081412,98,28.73,103.51,282.9,1.329
470,slave lake,75,CA,1571081412,100,55.28,-114.77,275.15,3.1
471,dryden,90,CA,1571081412,86,49.79,-92.84,277.15,5.1
472,singkang,75,MY,1571081412,88,2.1,102.8,298.15,1.128
473,omboue,100,GA,1571081412,96,-1.57,9.26,295.8,2.095
474,kopervik,75,NO,1571081412,93,59.28,5.31,284.26,3.1
475,riohacha,75,CO,1571081412,74,11.54,-72.91,304.15,3.6
476,oktyabrskiy,100,RU,1571081412,55,55.61,37.97,291.15,8.0
477,shima,75,JP,1571081412,64,34.34,136.82,293.15,10.8
478,dodge city,1,US,1571081412,31,37.75,-100.02,298.71,4.6
479,coruripe,4,BR,1571081412,69,-10.12,-36.18,299.4,6.111
480,anaimalai,75,IN,1571081412,88,10.58,76.93,297.15,2.1
481,luis gil perez,75,MX,1571081412,62,17.87,-93.05,303.15,4.6
482,ludvika,46,SE,1571081412,100,60.15,15.18,279.82,1.0
483,vorukh,14,KG,1571081412,54,39.85,70.57,280.3,1.979
484,polyarnyy,78,RU,1571081412,87,69.2,33.45,272.0,0.892
485,ewa beach,40,US,1571081412,58,21.32,-158.01,302.15,5.7
486,bonthe,66,SL,1571081412,80,7.53,-12.5,299.6,3.722
487,nantai,53,CN,1571081412,70,36.41,105.98,276.9,1.969
488,moree,0,AU,1571081412,56,-29.46,149.84,293.15,6.7
489,lorengau,100,PG,1571081412,69,-2.02,147.27,301.8,2.217
490,port macquarie,37,AU,1571081412,93,-31.43,152.91,285.37,3.572
491,newtonmore,20,GB,1571081412,100,57.07,-4.12,282.59,1.221
492,lashio,11,MM,1571081412,95,22.93,97.75,290.9,1.501
493,irbeyskoye,60,RU,1571081412,58,55.64,95.45,277.5,1.457
494,sola,99,TZ,1571081412,49,-3.17,33.8,297.7,5.978
495,san policarpo,100,PH,1571081412,83,12.18,125.51,299.3,3.72
496,margate,75,AU,1571081412,81,-43.03,147.26,283.15,5.1
497,gazli,0,UZ,1571081412,34,40.13,63.45,283.4,1.695
498,mwinilunga,100,ZM,1571081412,60,-11.73,24.43,295.5,1.147
499,sindor,89,RU,1571081412,95,62.87,51.9,274.9,2.734
500,sawtell,29,AU,1571081412,93,-30.38,153.1,288.15,0.5
501,marystown,83,CA,1571081412,2,47.17,-55.16,284.26,2.68
502,tono,44,JP,1571081412,97,39.35,141.52,279.81,1.327
503,kavaratti,98,IN,1571081412,70,10.57,72.64,301.48,1.166
504,hamilton,75,CA,1571081412,55,43.26,-79.87,286.48,6.2
505,saint-joseph,75,FR,1571081412,77,43.56,6.97,295.15,1.5
506,jhawarian,0,PK,1571081412,28,32.36,72.63,297.76,1.877
507,tarko-sale,100,RU,1571081412,95,64.92,77.78,278.15,4.139
508,dukat,0,AL,1571081412,86,40.25,19.57,293.71,2.24
509,tiarei,75,PF,1571081412,61,-17.53,-149.33,300.15,3.1
510,carutapera,49,BR,1571081412,80,-1.2,-46.02,300.49,8.541
511,dwarka,0,IN,1571081412,69,28.58,77.04,303.15,2.236
512,vagur,0,FO,1571081412,89,61.47,-6.81,282.52,8.46
513,ixtepec,90,MX,1571081412,62,20.03,-97.65,303.15,2.1
514,capinota,40,BO,1571081412,27,-17.71,-66.26,297.15,5.1
515,les cayes,21,HT,1571081412,72,18.19,-73.75,301.96,3.725
516,tecoanapa,20,MX,1571081412,79,16.99,-99.26,303.15,3.6
517,gat,40,SN,1571081412,83,14.69,-16.54,300.15,2.6
518,maltahohe,99,NA,1571081412,19,-24.83,16.98,294.07,7.327
519,pacific grove,1,US,1571081412,67,36.62,-121.92,293.71,3.1
520,kizhinga,14,RU,1571081412,61,51.85,109.91,269.95,1.678
521,sergach,100,RU,1571081412,98,55.53,45.48,280.57,2.944
522,vao,90,EE,1571081412,86,59.1,26.19,279.2,4.269
523,manbij,91,SY,1571081412,36,36.53,37.96,290.15,1.0
524,new castle,75,US,1571081412,36,41.0,-80.35,290.37,5.7
525,puerto madero,75,AR,1571081412,58,-34.61,-58.36,286.48,9.8
526,trofors,20,NO,1571081412,92,65.54,13.39,278.15,1.5
527,kushima,0,JP,1571081412,82,31.5,131.29,288.71,1.79
528,kannod,0,IN,1571081412,70,22.67,76.74,295.25,0.014
529,saint anthony,1,US,1571081412,27,43.97,-111.68,286.48,5.1
530,susanville,1,US,1571081412,23,40.42,-120.65,289.15,1.5
